City_ID,City,Country,Date,Lat,Lng,Max Temp,Humidity,Cloudiness,Wind Speed,Current Description
0,Busselton,AU,2021-10-01 18:32:08,-33.65,115.3333,48.09,79,6,14.38,clear sky
1,Akdagmadeni,TR,2021-10-01 18:34:36,39.6603,35.8836,45.64,74,0,4.54,clear sky
2,Kruisfontein,ZA,2021-10-01 18:32:01,-34.0033,24.7314,58.89,90,99,5.53,light rain
3,Ushuaia,AR,2021-10-01 18:32:04,-54.8,-68.3,38.86,81,75,18.41,light rain
4,Bluff,NZ,2021-10-01 18:32:18,-46.6,168.3333,45.81,83,100,15.3,light rain
5,Port Elizabeth,ZA,2021-10-01 18:32:07,-33.918,25.5701,61.11,100,75,11.5,light intensity drizzle
6,Kapaa,US,2021-10-01 18:32:28,22.0752,-159.319,77.32,80,90,4.0,overcast clouds
7,Carnarvon,AU,2021-10-01 18:29:49,-24.8667,113.6333,64.47,55,75,17.27,broken clouds
8,Alcudia,ES,2021-10-01 18:34:37,39.8532,3.1214,71.55,77,100,5.91,overcast clouds
9,Coos Bay,US,2021-10-01 18:34:37,43.3665,-124.2179,66.31,79,1,13.8,clear sky
10,Bulgan,MN,2021-10-01 18:34:38,48.8125,103.5347,41.56,83,100,1.92,light rain
11,Rundu,NA,2021-10-01 18:34:38,-17.9333,19.7667,78.08,16,17,5.21,few clouds
12,New Norfolk,AU,2021-10-01 18:32:00,-42.7826,147.0587,55.76,83,100,2.37,overcast clouds
13,Bethel,US,2021-10-01 18:29:15,41.3712,-73.414,67.19,58,20,1.01,few clouds
14,Castro,BR,2021-10-01 18:31:59,-24.7911,-50.0119,58.82,98,100,8.61,moderate rain
15,Port Alfred,ZA,2021-10-01 18:32:13,-33.5906,26.891,63.99,82,67,9.84,light rain
16,Saskylakh,RU,2021-10-01 18:33:14,71.9167,114.0833,17.74,98,92,3.8,overcast clouds
17,Arraial Do Cabo,BR,2021-10-01 18:32:10,-22.9661,-42.0278,73.36,78,75,17.27,broken clouds
18,Kidal,ML,2021-10-01 18:34:39,18.4411,1.4078,93.02,10,82,9.66,broken clouds
19,Merauke,ID,2021-10-01 18:34:39,-8.4667,140.3333,75.97,90,94,9.73,overcast clouds
20,Sorrento,IT,2021-10-01 18:34:40,40.626,14.3744,73.53,3,17,1.07,few clouds
21,Ribeira Grande,PT,2021-10-01 18:32:21,38.5167,-28.7,75.6,83,40,11.5,scattered clouds
22,Yellowknife,CA,2021-10-01 18:30:26,62.456,-114.3525,48.42,100,90,4.0,overcast clouds
23,Gat,IL,2021-10-01 18:34:40,31.61,34.7642,77.68,100,0,7.56,clear sky
24,Tiksi,RU,2021-10-01 18:32:23,71.6872,128.8694,27.37,88,83,4.32,broken clouds
25,Gobabis,NA,2021-10-01 18:34:41,-22.45,18.9667,66.02,7,0,17.49,clear sky
26,Hermanus,ZA,2021-10-01 18:32:38,-34.4187,19.2345,59.9,80,98,8.46,light rain
27,Barrow,US,2021-10-01 18:32:09,71.2906,-156.7887,30.22,80,90,21.85,light snow
28,Butaritari,KI,2021-10-01 18:32:47,3.0707,172.7902,81.66,79,98,15.05,overcast clouds
29,Muzhi,RU,2021-10-01 18:34:41,65.3667,64.6667,32.99,81,81,10.36,broken clouds
30,Rikitea,PF,2021-10-01 18:32:09,-23.1203,-134.9692,72.84,75,11,20.38,light rain
31,Atasu,KZ,2021-10-01 18:34:42,48.6814,71.6433,37.53,64,41,11.9,scattered clouds
32,Kavieng,PG,2021-10-01 18:33:09,-2.5744,150.7967,81.7,70,100,3.29,overcast clouds
33,Bozuyuk,TR,2021-10-01 18:34:42,39.9078,30.0367,53.94,93,0,4.45,clear sky
34,Fairbanks,US,2021-10-01 18:30:54,64.8378,-147.7164,32.22,82,90,0.0,overcast clouds
35,Lorengau,PG,2021-10-01 18:33:28,-2.0226,147.2712,78.85,76,100,3.2,overcast clouds
36,Souillac,MU,2021-10-01 18:34:43,-20.5167,57.5167,73.36,78,75,12.66,broken clouds
37,Zhigansk,RU,2021-10-01 18:34:43,66.7697,123.3711,28.45,83,22,12.12,few clouds
38,Kupang,ID,2021-10-01 18:34:44,-10.1667,123.5833,77.22,83,94,3.89,overcast clouds
39,Jumla,NP,2021-10-01 18:34:44,29.2747,82.1838,59.13,88,69,2.1,broken clouds
40,Hobyo,SO,2021-10-01 18:34:44,5.3505,48.5268,78.76,86,13,22.44,few clouds
41,Albany,US,2021-10-01 18:27:25,42.6001,-73.9662,64.58,56,8,1.01,clear sky
42,San Policarpo,PH,2021-10-01 18:34:45,12.1791,125.5072,78.03,86,100,2.73,overcast clouds
43,Beyneu,KZ,2021-10-01 18:34:45,45.3167,55.2,51.08,30,0,7.29,clear sky
44,Songkhla,TH,2021-10-01 18:34:45,6.8333,100.6667,77.05,92,100,0.6,overcast clouds
45,High Level,CA,2021-10-01 18:34:46,58.5169,-117.136,53.71,62,75,5.75,broken clouds
46,Rassvet,RU,2021-10-01 18:34:46,46.8333,40.75,47.53,54,5,13.42,clear sky
47,Honiara,SB,2021-10-01 18:34:46,-9.4333,159.95,77.22,86,100,1.52,overcast clouds
48,Stokmarknes,NO,2021-10-01 18:34:47,68.5646,14.9108,53.58,58,75,19.57,broken clouds
49,Nanortalik,GL,2021-10-01 18:34:19,60.1432,-45.2371,40.69,56,0,4.56,clear sky
50,Sao Filipe,CV,2021-10-01 18:34:47,14.8961,-24.4956,78.78,76,35,5.86,scattered clouds
51,Hobart,AU,2021-10-01 18:30:05,-42.8794,147.3294,56.12,96,90,6.91,overcast clouds
52,Imbituba,BR,2021-10-01 18:34:48,-28.24,-48.6703,73.29,86,100,1.52,overcast clouds
53,Saint-Pierre,RE,2021-10-01 18:34:48,-21.3393,55.4781,71.28,77,75,11.5,broken clouds
54,Xichang,CN,2021-10-01 18:34:48,27.8964,102.2634,63.54,90,60,0.98,broken clouds
55,Georgetown,MY,2021-10-01 18:32:14,5.4112,100.3354,82.33,89,20,0.0,moderate rain
56,Cape Town,ZA,2021-10-01 18:32:19,-33.9258,18.4232,61.21,71,75,14.97,broken clouds
57,Mae Sai,TH,2021-10-01 18:34:49,20.4335,99.8762,74.44,99,70,0.47,broken clouds
58,Usinsk,RU,2021-10-01 18:33:20,65.9939,57.5281,37.02,67,100,6.71,overcast clouds
59,Tambopata,PE,2021-10-01 18:34:49,-12.7333,-69.1833,96.69,38,40,9.22,scattered clouds
60,Isangel,VU,2021-10-01 18:32:41,-19.55,169.2667,77.11,78,100,11.5,overcast clouds
61,Sisimiut,GL,2021-10-01 18:31:09,66.9395,-53.6735,37.96,58,3,4.63,clear sky
62,Khatanga,RU,2021-10-01 18:32:36,71.9667,102.5,27.52,95,100,4.38,overcast clouds
63,Daru,PG,2021-10-01 18:34:50,-9.0763,143.2092,77.61,88,100,6.87,overcast clouds
64,Svetlyy,RU,2021-10-01 18:34:50,54.675,20.1347,46.45,70,12,9.53,few clouds
65,Port-Gentil,GA,2021-10-01 18:32:19,-0.7193,8.7815,78.76,83,75,9.22,broken clouds
66,Norman Wells,CA,2021-10-01 18:32:14,65.282,-126.8329,41.04,81,75,8.05,broken clouds
67,East London,ZA,2021-10-01 18:29:10,-33.0153,27.9116,63.54,94,75,13.8,broken clouds
68,Bambous Virieux,MU,2021-10-01 18:33:41,-20.3428,57.7575,73.22,78,75,12.66,broken clouds
69,Kobayashi,JP,2021-10-01 18:34:51,31.9833,130.9833,63.57,75,0,3.44,clear sky
70,Pontianak,ID,2021-10-01 18:30:12,-0.0333,109.3333,73.38,100,90,5.75,overcast clouds
71,Comodoro Rivadavia,AR,2021-10-01 18:32:08,-45.8667,-67.5,57.06,24,20,13.8,few clouds
72,Topalu,RO,2021-10-01 18:34:52,44.55,28.05,54.57,65,6,7.74,clear sky
73,Katherine,AU,2021-10-01 18:34:52,-14.4667,132.2667,84.52,51,40,12.66,scattered clouds
74,Vaini,TO,2021-10-01 18:32:05,-21.2,-175.2,71.76,94,75,10.36,light intensity shower rain
75,Tuatapere,NZ,2021-10-01 18:32:36,-46.1333,167.6833,45.82,84,100,4.29,light rain
76,Port Lincoln,AU,2021-10-01 18:30:26,-34.7333,135.8667,53.74,90,6,12.44,clear sky
77,Excelsior Springs,US,2021-10-01 18:32:39,39.3392,-94.2261,76.84,77,90,4.61,overcast clouds
78,Qaanaaq,GL,2021-10-01 18:32:11,77.484,-69.3632,27.66,90,100,7.11,overcast clouds
79,Nome,US,2021-10-01 18:34:14,64.5011,-165.4064,30.27,64,40,13.8,scattered clouds
80,Roberval,CA,2021-10-01 18:34:53,48.5168,-72.2324,52.25,71,90,4.61,overcast clouds
81,Kodiak,US,2021-10-01 18:32:34,57.79,-152.4072,42.31,61,40,5.75,scattered clouds
82,Chingirlau,KZ,2021-10-01 18:34:54,51.095,54.0814,46.87,66,87,3.8,overcast clouds
83,Nikolskoye,RU,2021-10-01 18:33:17,59.7035,30.7861,51.87,86,100,4.92,overcast clouds
84,Araouane,ML,2021-10-01 18:34:54,18.9048,-3.5265,96.82,15,100,7.0,overcast clouds
85,Bilma,NE,2021-10-01 18:34:55,18.6853,12.9164,88.0,13,0,4.21,clear sky
86,Tuktoyaktuk,CA,2021-10-01 18:32:20,69.4541,-133.0374,33.8,86,90,12.66,overcast clouds
87,Shimizu,JP,2021-10-01 18:34:55,43.0061,142.8847,52.59,97,100,2.62,moderate rain
88,Punta Arenas,CL,2021-10-01 18:32:05,-53.15,-70.9167,46.51,42,40,25.32,scattered clouds
89,Hilo,US,2021-10-01 18:31:09,19.7297,-155.09,79.61,86,75,8.05,light rain
90,Sarangani,PH,2021-10-01 18:34:55,5.4033,125.4636,83.88,72,87,5.99,overcast clouds
91,Mataura,NZ,2021-10-01 18:31:58,-46.1927,168.8643,45.48,93,100,2.06,light rain
92,Mahebourg,MU,2021-10-01 18:33:15,-20.4081,57.7,73.26,78,75,12.66,broken clouds
93,Coihaique,CL,2021-10-01 18:34:56,-45.5752,-72.0662,36.21,93,90,5.75,moderate rain
94,Arlit,NE,2021-10-01 18:33:38,18.7369,7.3853,90.75,11,0,12.55,clear sky
95,Marzuq,YE,2021-10-01 18:34:56,14.4,46.4667,80.01,49,99,3.89,overcast clouds
96,San Patricio,US,2021-10-01 18:33:38,28.017,-97.5169,79.48,69,100,13.58,light rain
97,Smiltene,LV,2021-10-01 18:34:57,57.4244,25.9016,48.79,90,99,3.85,overcast clouds
98,Chuy,UY,2021-10-01 18:33:36,-33.6971,-53.4616,63.1,68,6,14.97,clear sky
99,Ayan,RU,2021-10-01 18:34:57,56.45,138.1667,43.47,68,92,2.82,overcast clouds
100,Airai,TL,2021-10-01 18:32:28,-8.9266,125.4092,59.74,78,98,0.92,overcast clouds
101,Torbay,CA,2021-10-01 18:30:27,47.6666,-52.7314,60.89,98,90,4.61,fog
102,Jamestown,US,2021-10-01 18:29:55,42.097,-79.2353,68.02,61,20,8.05,few clouds
103,Clyde River,CA,2021-10-01 18:32:53,70.4692,-68.5914,39.43,81,75,6.91,broken clouds
104,Vysokogornyy,RU,2021-10-01 18:34:58,50.1167,139.15,33.48,86,18,3.06,few clouds
105,Dikson,RU,2021-10-01 18:32:26,73.5069,80.5464,31.57,80,100,17.27,overcast clouds
106,Riyadh,SA,2021-10-01 18:30:17,24.6877,46.7219,86.14,11,99,6.13,overcast clouds
107,Nemuro,JP,2021-10-01 18:33:34,43.3236,145.575,56.37,94,100,13.47,light rain
108,Columbus,US,2021-10-01 18:30:42,39.9612,-82.9988,77.04,43,20,1.01,few clouds
109,Tazovskiy,RU,2021-10-01 18:34:59,67.4667,78.7,30.07,89,97,17.9,overcast clouds
110,Cherskiy,RU,2021-10-01 18:34:08,68.75,161.3,2.84,94,64,6.85,broken clouds
111,Barillas,GT,2021-10-01 18:34:59,15.8036,-91.3158,80.94,50,8,6.08,clear sky
112,Lagoa,PT,2021-10-01 18:34:59,39.05,-27.9833,71.42,86,88,13.87,overcast clouds
113,Salcedo,PH,2021-10-01 18:35:00,12.8105,121.4674,77.25,82,100,4.36,overcast clouds
114,Chara,RU,2021-10-01 18:35:01,56.9064,118.2631,27.59,70,100,0.98,overcast clouds
115,Talara,PE,2021-10-01 18:35:01,-4.5772,-81.2719,77.76,57,0,12.66,clear sky
116,Mersing,MY,2021-10-01 18:35:08,2.4312,103.8405,73.31,94,100,3.44,heavy intensity rain
117,Altay,CN,2021-10-01 18:35:08,47.8667,88.1167,32.36,72,100,5.59,overcast clouds
118,Lima,PE,2021-10-01 18:33:10,-12.0432,-77.0282,63.39,93,75,3.0,broken clouds
119,Degollado,MX,2021-10-01 18:35:08,20.467,-102.1498,73.92,61,54,2.57,broken clouds
120,Bonthe,SL,2021-10-01 18:35:09,7.5264,-12.505,79.83,82,74,5.53,broken clouds
121,Bredasdorp,ZA,2021-10-01 18:35:09,-34.5322,20.0403,56.52,88,100,3.44,overcast clouds
122,Lang Son,VN,2021-10-01 18:30:19,21.8333,106.7333,74.14,92,96,1.9,light rain
123,Iqaluit,CA,2021-10-01 18:35:10,63.7506,-68.5145,35.33,75,40,2.3,scattered clouds
124,Puerto Ayora,EC,2021-10-01 18:35:10,-0.7393,-90.3518,78.76,82,97,9.6,overcast clouds
125,Taos,US,2021-10-01 18:35:10,36.4072,-105.5731,53.73,86,90,1.99,light rain
126,Grafton,US,2021-10-01 18:35:11,42.207,-71.6856,66.87,52,20,1.99,few clouds
127,San Vicente,AR,2021-10-01 18:35:11,-26.6167,-54.1333,63.03,98,100,2.37,light rain
128,Maba,CN,2021-10-01 18:35:12,24.6841,113.5984,76.39,89,0,0.58,light rain
129,Porbandar,IN,2021-10-01 18:35:12,21.6422,69.6093,80.37,87,1,11.92,clear sky
130,Sistranda,NO,2021-10-01 18:35:12,63.7256,8.834,58.89,77,100,13.78,overcast clouds
131,Qixingtai,CN,2021-10-01 18:35:13,30.4135,111.8874,74.8,76,68,1.28,light rain
132,Salalah,OM,2021-10-01 18:34:17,17.0151,54.0924,82.49,83,75,8.05,broken clouds
133,Ornskoldsvik,SE,2021-10-01 18:35:13,63.2909,18.7153,51.62,100,90,20.71,light intensity drizzle
134,Bosobolo,CD,2021-10-01 18:35:13,4.1833,19.9,72.97,92,100,2.71,overcast clouds
135,Thompson,CA,2021-10-01 18:30:31,55.7435,-97.8558,64.56,55,40,8.05,scattered clouds
136,Taoudenni,ML,2021-10-01 18:35:14,22.6783,-3.9836,98.01,7,84,7.0,broken clouds
137,Olinda,BR,2021-10-01 18:32:24,-8.0089,-34.8553,80.33,78,40,13.8,scattered clouds
138,Muravlenko,RU,2021-10-01 18:35:14,63.7898,74.523,30.25,96,100,18.97,light snow
139,Talnakh,RU,2021-10-01 18:35:15,69.4865,88.3972,19.47,94,67,2.01,broken clouds
140,Tambura,SS,2021-10-01 18:35:15,5.6,27.4667,70.63,85,100,1.01,overcast clouds
141,Pevek,RU,2021-10-01 18:35:15,69.7008,170.3133,18.68,92,95,10.2,overcast clouds
142,Tocopilla,CL,2021-10-01 18:35:16,-22.092,-70.1979,67.24,66,22,11.43,few clouds
143,Terrace,CA,2021-10-01 18:35:16,54.5163,-128.6035,49.42,87,75,16.11,light intensity shower rain
144,Buerarema,BR,2021-10-01 18:35:17,-14.9594,-39.2997,81.19,56,16,8.75,few clouds
145,Road Town,VG,2021-10-01 18:35:17,18.4167,-64.6167,88.2,62,40,6.91,scattered clouds
146,Lebu,CL,2021-10-01 18:35:17,-37.6167,-73.65,54.34,79,100,17.65,overcast clouds
147,Severo-Kurilsk,RU,2021-10-01 18:32:17,50.6789,156.125,49.96,97,100,11.54,overcast clouds
148,Dingle,PH,2021-10-01 18:35:18,10.9995,122.6711,77.11,91,94,0.76,overcast clouds
149,Ust-Maya,RU,2021-10-01 18:35:19,60.4167,134.5333,33.84,99,100,2.95,light rain
150,Tasiilaq,GL,2021-10-01 18:35:19,65.6145,-37.6368,37.56,57,58,7.99,broken clouds
151,Krasnoturansk,RU,2021-10-01 18:35:21,54.3186,91.5639,39.99,71,94,5.66,overcast clouds
152,Sept-Iles,CA,2021-10-01 18:35:21,50.2001,-66.3821,53.06,87,90,10.0,overcast clouds
153,Chokurdakh,RU,2021-10-01 18:35:21,70.6333,147.9167,5.83,94,63,5.06,broken clouds
154,Hasaki,JP,2021-10-01 18:35:22,35.7333,140.8333,63.28,73,3,14.23,clear sky
155,Provideniya,RU,2021-10-01 18:35:22,64.3833,-173.3,22.78,83,17,7.99,few clouds
156,Anadyr,RU,2021-10-01 18:33:44,64.75,177.4833,7.3,85,0,11.18,clear sky
157,Pangnirtung,CA,2021-10-01 18:35:23,66.1451,-65.7125,32.0,86,20,4.61,few clouds
158,Axim,GH,2021-10-01 18:35:23,4.8699,-2.2405,76.98,89,100,5.57,overcast clouds
159,North Myrtle Beach,US,2021-10-01 18:35:24,33.816,-78.68,85.21,56,1,8.01,clear sky
160,Lata,PT,2021-10-01 18:35:24,40.1629,-8.3327,66.07,83,100,3.49,overcast clouds
161,Harrismith,ZA,2021-10-01 18:35:24,-28.2728,29.1295,57.07,81,55,13.15,broken clouds
162,Seinajoki,FI,2021-10-01 18:35:24,62.7945,22.8282,53.2,71,0,3.0,clear sky
163,Otjimbingwe,NA,2021-10-01 18:35:25,-22.35,16.1333,62.44,22,0,8.16,clear sky
164,Veydelevka,RU,2021-10-01 18:35:25,50.1521,38.4492,46.22,63,12,6.2,few clouds
165,Maceio,BR,2021-10-01 18:35:26,-9.6658,-35.7353,85.44,74,40,8.05,scattered clouds
166,Saint-Francois,FR,2021-10-01 18:35:26,46.4154,3.9054,58.44,82,0,0.0,clear sky
167,Faanui,PF,2021-10-01 18:33:44,-16.4833,-151.75,79.0,70,10,18.01,clear sky
168,Qaqortoq,GL,2021-10-01 18:35:26,60.7167,-46.0333,41.5,47,0,4.21,clear sky
169,Port Blair,IN,2021-10-01 18:35:27,11.6667,92.75,80.56,83,84,10.42,broken clouds
170,Lompoc,US,2021-10-01 18:35:27,34.6391,-120.4579,92.7,37,1,5.75,fog
171,Sundsvall,SE,2021-10-01 18:35:27,62.3913,17.3063,51.96,92,90,11.5,overcast clouds
172,Kostino,RU,2021-10-01 18:35:28,58.9097,53.2691,42.33,92,100,3.11,overcast clouds
173,Victoria,HK,2021-10-01 18:35:09,22.2855,114.1577,85.32,81,10,1.01,light rain
174,Pemangkat,ID,2021-10-01 18:35:28,1.1667,108.9667,75.52,88,100,8.9,overcast clouds
175,Cabo San Lucas,MX,2021-10-01 18:35:29,22.8909,-109.9124,92.61,59,20,1.99,few clouds
176,Ilhabela,BR,2021-10-01 18:35:29,-23.7781,-45.3581,69.35,93,100,9.71,overcast clouds
177,Nalgonda,IN,2021-10-01 18:35:29,17.05,79.2667,76.01,94,5,4.79,clear sky
178,Ponta Delgada,PT,2021-10-01 18:35:30,37.7333,-25.6667,74.12,78,40,4.61,scattered clouds
179,Miyako,JP,2021-10-01 18:35:30,39.6367,141.9525,60.96,89,100,17.54,overcast clouds
180,Moron,AR,2021-10-01 18:35:30,-34.6534,-58.6198,74.98,31,0,7.74,clear sky
181,Abu Kamal,SY,2021-10-01 18:35:31,34.4506,40.9171,83.82,23,0,6.22,clear sky
182,Vila Franca Do Campo,PT,2021-10-01 18:32:41,37.7167,-25.4333,73.81,79,53,3.49,broken clouds
183,Patea,NZ,2021-10-01 18:35:31,-39.7583,174.4833,52.66,85,100,9.28,overcast clouds
184,North Bend,US,2021-10-01 18:35:32,43.4065,-124.2243,66.24,79,1,13.8,clear sky
185,Sao Joao Da Barra,BR,2021-10-01 18:35:32,-21.6403,-41.0511,77.09,83,21,15.12,few clouds
186,Atuona,PF,2021-10-01 18:35:32,-9.8,-139.0333,78.17,71,34,21.68,scattered clouds
187,Kaitangata,NZ,2021-10-01 18:32:23,-46.2817,169.8464,48.92,72,100,7.16,moderate rain
188,Umm Lajj,SA,2021-10-01 18:35:33,25.0213,37.2685,82.4,64,0,7.34,clear sky
189,Hamilton,US,2021-10-01 18:32:40,39.1834,-84.5333,80.65,44,1,1.01,clear sky
190,Mar Del Plata,AR,2021-10-01 18:35:33,-38.0023,-57.5575,62.62,39,0,11.01,clear sky
191,Honningsvag,NO,2021-10-01 18:35:34,70.9821,25.9704,47.95,66,75,21.85,broken clouds
192,Shahpura,IN,2021-10-01 18:35:34,27.3833,75.9667,81.73,72,100,3.31,overcast clouds
193,Samarai,PG,2021-10-01 18:35:34,-10.6167,150.6667,79.61,85,80,6.06,broken clouds
194,Turayf,SA,2021-10-01 18:35:35,31.6725,38.6637,80.85,26,0,11.5,clear sky
195,Monopoli,IT,2021-10-01 18:35:35,40.9559,17.2896,73.17,70,0,6.62,clear sky
196,Ngaoundere,CM,2021-10-01 18:35:35,7.3167,13.5833,66.0,90,96,2.08,overcast clouds
197,Karratha,AU,2021-10-01 18:35:36,-20.7377,116.8463,70.47,73,79,20.69,broken clouds
198,Mae Hong Son,TH,2021-10-01 18:35:36,19.3003,97.9685,74.44,99,98,1.66,overcast clouds
199,Leningradskiy,RU,2021-10-01 18:35:37,69.3833,178.4167,17.74,93,99,6.76,overcast clouds
200,Toamasina,MG,2021-10-01 18:35:37,-18.1667,49.3833,69.8,94,40,3.44,light rain
201,Saint Augustine,US,2021-10-01 18:35:37,29.8947,-81.3145,90.05,65,40,11.5,scattered clouds
202,Dunedin,NZ,2021-10-01 18:30:44,-45.8742,170.5036,46.8,83,100,4.61,light rain
203,Bengkulu,ID,2021-10-01 18:32:20,-3.8004,102.2655,76.21,87,100,3.47,overcast clouds
204,Ginir,ET,2021-10-01 18:35:38,7.1333,40.7,60.78,86,100,4.83,moderate rain
205,Ignatovka,RU,2021-10-01 18:35:38,53.9479,47.6536,44.85,87,28,4.76,scattered clouds
206,Poum,NC,2021-10-01 18:35:39,-20.2333,164.0167,74.32,73,100,22.35,overcast clouds
207,Havelock,US,2021-10-01 18:35:39,34.8791,-76.9013,80.06,63,40,4.0,scattered clouds
208,Marfino,RU,2021-10-01 18:35:39,55.7028,37.3822,42.94,87,75,4.47,broken clouds
209,Kovur,IN,2021-10-01 18:35:40,14.4833,79.9833,81.99,80,7,5.06,clear sky
210,Aswan,EG,2021-10-01 18:35:40,24.0934,32.907,88.9,22,0,11.5,clear sky
211,Kavaratti,IN,2021-10-01 18:35:40,10.5669,72.642,81.99,81,100,13.18,overcast clouds
212,Shaoguan,CN,2021-10-01 18:35:41,24.8,113.5833,76.17,89,0,0.38,light rain
213,Conde,BR,2021-10-01 18:35:41,-7.2597,-34.9075,83.66,70,40,11.5,scattered clouds
214,Vestmannaeyjar,IS,2021-10-01 18:35:41,63.4427,-20.2734,50.99,66,20,6.91,few clouds
215,Mackay,AU,2021-10-01 18:32:08,-21.15,149.2,66.04,94,3,1.14,fog
216,Esperance,AU,2021-10-01 18:35:42,-33.8667,121.9,55.24,86,100,17.67,overcast clouds
217,Coahuayana,MX,2021-10-01 18:35:42,18.7333,-103.6833,87.6,65,81,4.18,broken clouds
218,Hutchinson,US,2021-10-01 18:35:07,38.0608,-97.9298,73.35,64,20,1.01,few clouds
219,Mount Isa,AU,2021-10-01 18:31:21,-20.7333,139.5,60.57,31,5,0.0,clear sky
220,Namibe,AO,2021-10-01 18:35:43,-15.1961,12.1522,62.26,80,4,9.66,clear sky
221,Upernavik,GL,2021-10-01 18:33:12,72.7868,-56.1549,33.12,98,100,16.62,snow
222,Arman,RU,2021-10-01 18:35:43,59.7,150.1667,37.45,96,100,4.81,light rain
223,Pavlovsk,RU,2021-10-01 18:35:44,50.4578,40.1081,47.12,64,4,2.68,clear sky
224,Adrar,MR,2021-10-01 18:35:44,20.5022,-10.0711,96.13,17,42,6.11,scattered clouds
225,Cockburn Town,TC,2021-10-01 18:34:19,21.4612,-71.1419,85.96,58,4,6.91,clear sky
226,Farafangana,MG,2021-10-01 18:35:44,-22.8167,47.8333,72.32,82,0,13.65,clear sky
227,Cidreira,BR,2021-10-01 18:35:45,-30.1811,-50.2056,69.28,87,100,11.43,overcast clouds
228,Sioux Lookout,CA,2021-10-01 18:35:45,50.1001,-91.917,66.58,94,90,4.61,mist
229,Hambantota,LK,2021-10-01 18:35:46,6.1241,81.1185,73.74,100,20,2.3,few clouds
230,Najran,SA,2021-10-01 18:35:46,17.4924,44.1277,83.05,24,73,4.05,broken clouds
231,Shumskiy,RU,2021-10-01 18:35:46,54.8318,99.1328,36.61,91,100,7.58,light rain
232,Camacha,PT,2021-10-01 18:33:51,33.0833,-16.3333,70.56,73,20,11.5,few clouds
233,Te Anau,NZ,2021-10-01 18:35:47,-45.4167,167.7167,43.57,88,100,2.15,light rain
234,Plettenberg Bay,ZA,2021-10-01 18:35:47,-34.0527,23.3716,58.69,90,100,6.13,light rain
235,Elko,US,2021-10-01 18:35:47,41.0002,-115.5012,63.73,22,11,5.99,few clouds
236,Karasjok,NO,2021-10-01 18:33:14,69.4719,25.5112,44.71,87,100,11.79,overcast clouds
237,Ponta Do Sol,PT,2021-10-01 18:32:21,32.6667,-17.1,75.13,68,3,6.13,clear sky
238,Nazca,PE,2021-10-01 18:35:48,-14.8333,-74.95,84.58,32,0,9.33,clear sky
239,Galesong,ID,2021-10-01 18:35:48,-5.3166,119.3661,75.22,76,100,6.2,overcast clouds
240,Dembi Dolo,ET,2021-10-01 18:35:49,8.5333,34.8,58.33,93,100,3.71,overcast clouds
241,Ancud,CL,2021-10-01 18:35:49,-41.8697,-73.8203,45.93,88,100,22.57,light rain
242,Tual,ID,2021-10-01 18:35:49,-5.6667,132.75,81.01,79,99,11.74,overcast clouds
243,Hameenlinna,FI,2021-10-01 18:35:50,60.996,24.4643,50.34,97,100,8.03,overcast clouds
244,Bela,IN,2021-10-01 18:35:50,25.9333,81.9833,76.48,84,78,5.17,broken clouds
245,Mocuba,MZ,2021-10-01 18:35:50,-16.8392,36.9856,72.66,75,0,5.77,clear sky
246,Sabya,SA,2021-10-01 18:35:51,17.1495,42.6254,91.02,63,100,1.92,overcast clouds
247,Taltal,CL,2021-10-01 18:35:51,-25.4,-70.4833,64.04,65,26,7.23,scattered clouds
248,Grindavik,IS,2021-10-01 18:33:34,63.8424,-22.4338,48.67,81,0,16.11,clear sky
249,Brewster,US,2021-10-01 18:35:52,41.3973,-73.6171,68.16,59,20,1.01,few clouds
250,Babu,CN,2021-10-01 18:35:52,24.4167,111.5167,76.19,89,15,2.3,few clouds
251,Gopamau,IN,2021-10-01 18:35:53,27.55,80.2833,79.75,81,6,4.0,clear sky
252,Palafrugell,ES,2021-10-01 18:35:53,41.9174,3.1631,69.71,66,81,0.43,broken clouds
253,Galveston,US,2021-10-01 18:34:51,29.3669,-94.9669,76.21,93,90,3.44,light rain
254,Payo,ID,2021-10-01 18:35:54,-3.7508,103.6372,73.04,98,99,1.74,overcast clouds
255,Iquitos,PE,2021-10-01 18:35:54,-3.7481,-73.2472,89.64,62,75,3.44,broken clouds
256,Sabha,LY,2021-10-01 18:35:54,27.0377,14.4283,78.3,29,0,8.57,clear sky
257,Ahipara,NZ,2021-10-01 18:35:55,-35.1667,173.1667,49.26,84,5,2.75,clear sky
258,Malakal,SS,2021-10-01 18:35:55,9.5334,31.6605,74.12,92,32,2.71,scattered clouds
259,Jining,CN,2021-10-01 18:35:56,35.405,116.5814,66.99,89,0,1.9,light rain
260,Svetlaya,RU,2021-10-01 18:35:56,46.5389,138.3297,51.64,60,98,7.85,overcast clouds
261,Ucluelet,CA,2021-10-01 18:35:57,48.9329,-125.5528,54.09,92,100,1.05,overcast clouds
262,Cap Malheureux,MU,2021-10-01 18:35:57,-19.9842,57.6142,73.47,69,67,7.0,broken clouds
263,Codrington,AU,2021-10-01 18:35:58,-38.2667,141.9667,54.81,92,95,7.67,overcast clouds
264,Tokur,RU,2021-10-01 18:35:58,53.1333,132.9,25.52,95,98,2.75,overcast clouds
265,Sitka,US,2021-10-01 18:33:43,57.0531,-135.33,49.89,81,90,13.8,moderate rain
266,Mana,GF,2021-10-01 18:35:59,5.6592,-53.7767,86.18,59,97,8.41,overcast clouds
267,Meulaboh,ID,2021-10-01 18:35:59,4.1363,96.1285,74.1,87,100,4.03,overcast clouds
268,Singaraja,ID,2021-10-01 18:35:59,-8.112,115.0882,77.97,77,96,5.68,overcast clouds
269,Katsuura,JP,2021-10-01 18:36:00,35.1333,140.3,64.51,78,2,6.24,clear sky
270,Saint George,US,2021-10-01 18:31:19,37.1041,-113.5841,77.63,22,1,3.0,clear sky
271,Santana,BR,2021-10-01 18:36:00,-0.0583,-51.1817,96.98,49,40,10.36,scattered clouds
272,Buta,CD,2021-10-01 18:36:01,2.7858,24.73,71.51,99,99,0.96,light rain
273,Saint Anthony,US,2021-10-01 18:36:01,45.0205,-93.218,79.11,71,75,1.01,broken clouds
274,Issoudun,FR,2021-10-01 18:36:01,47.0,1.8333,58.91,77,0,8.05,clear sky
275,Havoysund,NO,2021-10-01 18:36:02,70.9963,24.6622,48.43,72,47,22.62,scattered clouds
276,Trelew,AR,2021-10-01 18:35:12,-43.249,-65.3051,63.57,17,100,21.36,overcast clouds
277,Vredendal,ZA,2021-10-01 18:36:02,-31.6683,18.5012,57.22,84,0,16.31,clear sky
278,Anloga,GH,2021-10-01 18:36:03,5.7947,0.8973,80.82,82,98,9.66,overcast clouds
279,Nishihara,JP,2021-10-01 18:36:03,26.1842,127.7558,80.65,78,20,3.44,few clouds
280,Kismayo,SO,2021-10-01 18:36:04,-0.3582,42.5454,77.02,85,92,17.11,overcast clouds
281,Quelimane,MZ,2021-10-01 18:36:04,-17.8786,36.8883,75.15,83,0,10.36,clear sky
282,Poltsamaa,EE,2021-10-01 18:36:04,58.6525,25.9706,48.78,96,37,4.76,scattered clouds
283,Bodden Town,KY,2021-10-01 18:36:05,19.2833,-81.25,85.93,87,20,8.01,few clouds
284,Hay River,CA,2021-10-01 18:36:05,60.8156,-115.7999,49.98,57,40,12.66,scattered clouds
285,Avarua,CK,2021-10-01 18:36:06,-21.2078,-159.775,77.05,78,20,6.91,light rain
286,Takoradi,GH,2021-10-01 18:36:06,4.8845,-1.7554,77.4,88,99,6.91,overcast clouds
287,Olavarria,AR,2021-10-01 18:36:06,-36.8927,-60.3225,67.01,36,19,7.29,few clouds
288,Casper,US,2021-10-01 18:33:34,42.8666,-106.3131,64.72,28,1,4.0,clear sky
289,Mariental,NA,2021-10-01 18:36:07,-24.6333,17.9667,64.9,10,90,15.77,overcast clouds
290,Pecos,US,2021-10-01 18:34:58,31.4229,-103.4932,73.81,60,75,0.0,broken clouds
291,Lavrentiya,RU,2021-10-01 18:36:07,65.5833,-171.0,25.12,84,56,9.73,broken clouds
292,Pascagoula,US,2021-10-01 18:36:07,30.3658,-88.5561,89.06,60,40,10.36,scattered clouds
293,Tiznit,MA,2021-10-01 18:36:08,29.5833,-9.5,84.81,17,0,2.01,clear sky
294,Yar-Sale,RU,2021-10-01 18:36:08,66.8333,70.8333,32.99,89,100,17.78,overcast clouds
295,Healesville,AU,2021-10-01 18:36:09,-37.65,145.5167,58.01,99,100,0.54,light rain
296,Dhidhdhoo,MV,2021-10-01 18:36:09,6.8833,73.1,80.85,77,100,14.38,light rain
297,Vagur,FO,2021-10-01 18:36:09,61.4732,-6.8119,49.66,87,42,11.97,scattered clouds
298,Sola,VU,2021-10-01 18:36:10,-13.8833,167.55,79.72,79,100,22.55,heavy intensity rain
299,Shenxian,CN,2021-10-01 18:36:10,36.2411,115.6672,64.44,93,0,3.44,light rain
300,Guerrero Negro,MX,2021-10-01 18:36:10,27.9769,-114.0611,80.69,51,0,4.45,clear sky
301,Manta,EC,2021-10-01 18:36:11,-0.95,-80.7333,76.78,78,75,12.66,broken clouds
302,Sadiqabad,PK,2021-10-01 18:36:11,28.3062,70.1307,90.66,47,79,13.06,broken clouds
303,Vidim,RU,2021-10-01 18:36:12,56.4088,103.1106,30.79,79,36,1.97,scattered clouds
304,Moerai,PF,2021-10-01 18:36:12,-22.4333,-151.3333,75.74,78,8,14.88,light rain
305,Port Hedland,AU,2021-10-01 18:36:13,-20.3167,118.5667,73.45,73,0,14.97,clear sky
306,Waspan,NI,2021-10-01 18:36:13,14.7419,-83.9717,89.28,68,35,5.28,scattered clouds
307,Rafaela,AR,2021-10-01 18:36:14,-31.2503,-61.4867,82.06,18,0,5.01,clear sky
308,Pryazha,RU,2021-10-01 18:36:14,61.6926,33.6216,40.23,83,100,3.67,overcast clouds
309,Teya,RU,2021-10-01 18:36:14,60.3778,92.6267,34.09,97,100,3.04,overcast clouds
310,Haines Junction,CA,2021-10-01 18:36:15,60.7522,-137.5108,35.55,93,100,6.91,moderate rain
311,Ixtapa,MX,2021-10-01 18:36:15,20.7,-105.2,88.23,66,40,4.61,scattered clouds
312,Margate,GB,2021-10-01 18:36:15,51.3813,1.3862,55.69,92,2,1.01,clear sky
313,Xining,CN,2021-10-01 18:36:16,36.6167,101.7667,53.04,42,89,2.82,overcast clouds
314,Beaverlodge,CA,2021-10-01 18:36:16,55.2166,-119.4361,52.95,31,1,20.07,clear sky
315,Hirara,JP,2021-10-01 18:36:17,24.8,125.2833,79.99,66,9,6.98,clear sky
316,Kalabo,ZM,2021-10-01 18:36:17,-14.97,22.6814,78.42,38,88,6.35,overcast clouds
317,Bako,ET,2021-10-01 18:36:17,5.7833,36.5667,67.42,74,88,4.05,light rain
318,Pisco,PE,2021-10-01 18:31:55,-13.7,-76.2167,68.02,77,20,11.5,few clouds
319,Neuquen,AR,2021-10-01 18:36:18,-38.9516,-68.0591,71.49,18,0,16.11,clear sky
320,Suoyarvi,RU,2021-10-01 18:33:12,62.0833,32.35,43.5,87,100,4.74,overcast clouds
321,Kangaatsiaq,GL,2021-10-01 18:36:18,68.3065,-53.4641,33.58,67,6,5.64,clear sky
322,Avondale,US,2021-10-01 18:35:09,33.4356,-112.3496,88.61,28,20,5.75,few clouds
323,Plon,DE,2021-10-01 18:32:03,54.1667,10.4167,60.64,72,100,11.27,overcast clouds
324,Alofi,NU,2021-10-01 18:34:28,-19.0595,-169.9187,75.09,78,100,11.5,overcast clouds
325,Khandyga,RU,2021-10-01 18:36:19,62.6667,135.6,31.96,97,100,2.84,light snow
326,Bandarbeyla,SO,2021-10-01 18:36:19,9.4942,50.8122,78.89,83,100,27.51,overcast clouds
327,Mount Gambier,AU,2021-10-01 18:31:59,-37.8333,140.7667,53.51,100,90,8.05,mist
328,Canico,PT,2021-10-01 18:36:19,32.6333,-16.85,75.13,64,20,25.32,few clouds
329,Camapua,BR,2021-10-01 18:36:20,-19.5314,-54.0439,101.1,22,29,11.1,scattered clouds
330,Bathsheba,BB,2021-10-01 18:33:16,13.2167,-59.5167,90.21,66,40,19.57,scattered clouds
331,Maraa,BR,2021-10-01 18:36:20,-1.8333,-65.3667,83.66,74,100,1.03,moderate rain
332,Bayji,IQ,2021-10-01 18:36:20,34.9311,43.487,84.38,20,0,6.11,clear sky
333,Luohe,CN,2021-10-01 18:36:21,33.5717,114.0353,71.73,92,40,1.25,light rain
334,Komsomolskiy,UZ,2021-10-01 18:36:21,40.4272,71.7189,63.32,42,90,2.3,overcast clouds
335,Rong Kwang,TH,2021-10-01 18:36:22,18.339,100.3174,78.01,97,100,1.36,overcast clouds
336,General Pico,AR,2021-10-01 18:33:14,-35.6566,-63.7568,69.8,29,0,5.41,clear sky
337,Raymond Terrace,AU,2021-10-01 18:36:22,-32.75,151.75,59.34,100,6,3.44,clear sky
338,Eskil,TR,2021-10-01 18:36:22,38.4017,33.4131,57.33,41,1,5.59,clear sky
339,Hyeres,FR,2021-10-01 18:36:23,43.1167,6.1167,73.69,75,0,6.91,clear sky
340,Raton,US,2021-10-01 18:36:23,36.9034,-104.4391,53.06,89,90,8.05,overcast clouds
341,Resistencia,AR,2021-10-01 18:34:34,-27.4606,-58.9839,77.05,69,40,10.36,light rain
342,Clarksburg,US,2021-10-01 18:36:24,39.2807,-80.3445,73.78,41,1,3.44,clear sky
343,Ninghai,CN,2021-10-01 18:36:24,29.2892,121.4247,69.48,88,0,2.21,clear sky
344,Rathdrum,US,2021-10-01 18:36:24,47.8137,-116.892,60.22,70,1,1.01,clear sky
345,Kahului,US,2021-10-01 18:36:25,20.8947,-156.47,80.96,68,20,16.11,few clouds
346,Petropavlovsk-Kamchatskiy,RU,2021-10-01 18:36:25,53.0452,158.6483,50.59,100,90,8.95,overcast clouds
347,Atambua,ID,2021-10-01 18:36:25,-9.1061,124.8925,73.15,83,100,1.54,overcast clouds
348,Plouzane,FR,2021-10-01 18:36:26,48.3833,-4.6167,56.08,79,0,2.3,clear sky
349,Nalut,LY,2021-10-01 18:36:26,30.3333,10.85,76.12,35,0,10.18,clear sky
350,Broome,US,2021-10-01 18:32:34,42.2506,-75.833,64.71,62,90,3.0,overcast clouds
351,Yulara,AU,2021-10-01 18:36:26,-25.2406,130.9889,60.64,31,0,0.0,clear sky
352,Innisfail,AU,2021-10-01 18:33:47,-17.5333,146.0333,71.37,90,87,3.0,overcast clouds
353,Tonekabon,IR,2021-10-01 18:36:27,36.8163,50.8738,64.35,82,96,2.91,overcast clouds
354,Timberlake,US,2021-10-01 18:36:27,37.3207,-79.2575,75.02,56,20,1.99,few clouds
355,Alto Araguaia,BR,2021-10-01 18:36:27,-17.3147,-53.2153,87.44,38,85,4.81,overcast clouds
356,San Quintin,MX,2021-10-01 18:36:28,30.4833,-115.95,78.62,51,0,11.74,clear sky
357,Muros,ES,2021-10-01 18:36:28,42.7762,-9.0603,68.16,92,100,1.28,overcast clouds
358,Coquimbo,CL,2021-10-01 18:33:16,-29.9533,-71.3436,64.13,59,0,16.11,clear sky
359,Viedma,AR,2021-10-01 18:36:29,-40.8135,-62.9967,67.44,19,17,9.28,few clouds
360,Holme,DK,2021-10-01 18:36:29,56.1138,10.1725,55.71,91,100,18.25,moderate rain
361,Praia Da Vitoria,PT,2021-10-01 18:36:29,38.7333,-27.0667,75.76,83,40,4.65,scattered clouds
362,Ngunguru,NZ,2021-10-01 18:36:30,-35.6167,174.5,44.17,79,17,3.18,few clouds
363,Bontang,ID,2021-10-01 18:36:30,0.1333,117.5,77.0,88,100,1.48,moderate rain
364,Namatanai,PG,2021-10-01 18:36:31,-3.6667,152.4333,79.83,78,91,2.13,overcast clouds
365,Bell Ville,AR,2021-10-01 18:36:31,-32.6259,-62.6887,77.81,19,0,7.0,clear sky
366,Hofn,IS,2021-10-01 18:33:08,64.2539,-15.2082,51.82,62,75,9.22,broken clouds
367,Acapulco,MX,2021-10-01 18:36:32,16.8634,-99.8901,87.62,62,20,4.61,few clouds
368,Sovetskiy,RU,2021-10-01 18:36:32,61.3614,63.5842,31.55,74,41,5.32,scattered clouds
369,Patti,IN,2021-10-01 18:36:33,31.2808,74.8572,84.15,62,3,3.87,clear sky
370,Sungairaya,ID,2021-10-01 18:36:33,0.7,108.9,74.82,91,100,12.75,overcast clouds
371,Constitucion,CL,2021-10-01 18:31:44,-35.3333,-72.4167,57.7,61,4,12.01,clear sky
372,Wattegama,LK,2021-10-01 18:36:34,6.7989,81.4808,72.52,93,100,1.16,overcast clouds
373,Mao,ES,2021-10-01 18:36:34,39.8885,4.2658,68.56,94,20,4.61,few clouds
374,Alekseyevka,RU,2021-10-01 18:36:34,50.6309,38.6903,46.94,64,10,4.23,clear sky
375,Saldanha,ZA,2021-10-01 18:36:35,-33.0117,17.9442,59.05,81,2,23.22,clear sky
376,Buritama,BR,2021-10-01 18:36:35,-21.0661,-50.1472,99.99,22,22,10.8,light rain
377,Killybegs,IE,2021-10-01 18:36:35,54.6333,-8.45,48.45,74,94,21.72,overcast clouds
378,Luena,AO,2021-10-01 18:36:36,-11.7833,19.9167,67.93,69,100,4.23,overcast clouds
379,Baykit,RU,2021-10-01 18:36:36,61.67,96.37,37.24,99,100,2.04,light rain
380,Svetlogorsk,BY,2021-10-01 18:36:37,52.6333,29.7333,44.64,71,6,7.05,clear sky
381,Kalmunai,LK,2021-10-01 18:36:37,7.4167,81.8167,75.56,88,100,6.35,overcast clouds
382,Ust-Tsilma,RU,2021-10-01 18:36:37,65.441,52.1498,33.85,93,14,2.15,few clouds
383,Sapernoye,RU,2021-10-01 18:36:38,60.7167,29.9505,50.2,82,100,4.9,overcast clouds
384,Grand-Lahou,CI,2021-10-01 18:36:38,5.1367,-5.0242,77.36,89,43,5.21,scattered clouds
385,Faya,SA,2021-10-01 18:33:21,18.3851,42.4509,66.31,58,39,1.74,scattered clouds
386,Chaozhou,CN,2021-10-01 18:36:39,23.6651,116.6379,80.46,93,95,2.15,overcast clouds
387,Khorramshahr,IR,2021-10-01 18:34:20,30.4397,48.1664,91.36,15,0,9.22,clear sky
388,Makakilo City,US,2021-10-01 18:36:39,21.3469,-158.0858,79.61,65,1,8.05,clear sky
389,Gamba,GA,2021-10-01 18:36:40,-2.65,10.0,75.67,85,100,4.7,overcast clouds
390,Safaga,EG,2021-10-01 18:36:40,26.7292,33.9365,84.15,44,0,13.78,clear sky
391,Okha,RU,2021-10-01 18:32:08,53.5739,142.9478,42.87,76,0,10.92,clear sky
392,Verkhnyaya Inta,RU,2021-10-01 18:36:41,65.9811,60.3094,35.53,75,100,6.15,overcast clouds
393,Brae,GB,2021-10-01 18:36:41,60.3964,-1.353,51.71,86,98,30.89,overcast clouds
394,Shirochanka,RU,2021-10-01 18:36:42,46.6497,38.3978,52.0,38,6,17.43,clear sky
395,Inta,RU,2021-10-01 18:36:42,66.0317,60.1659,36.16,73,100,6.69,overcast clouds
396,Sobolevo,RU,2021-10-01 18:36:43,54.4299,31.8996,42.48,84,14,5.93,few clouds
397,Ontario,US,2021-10-01 18:36:43,34.0633,-117.6509,92.82,11,1,5.01,clear sky
398,Quatre Cocos,MU,2021-10-01 18:33:57,-20.2078,57.7625,73.09,70,90,14.0,overcast clouds
399,Baruun-Urt,MN,2021-10-01 18:36:44,46.6806,113.2792,37.09,53,5,5.41,clear sky
400,Changqing,CN,2021-10-01 18:36:44,36.5575,116.7272,65.26,92,2,2.42,light rain
401,Bismarck,US,2021-10-01 18:36:44,46.8083,-100.7837,73.87,72,90,3.44,overcast clouds
402,Guaruja,BR,2021-10-01 18:36:45,-23.9931,-46.2564,78.4,57,40,1.14,moderate rain
403,Corn Island,NI,2021-10-01 18:36:45,12.1694,-83.0418,82.62,75,21,11.5,few clouds
404,Mega,ET,2021-10-01 18:36:45,4.05,38.3,66.18,57,100,14.27,overcast clouds
405,Mollendo,PE,2021-10-01 18:36:46,-17.0231,-72.0147,67.1,73,29,10.94,scattered clouds
406,Los Llanos De Aridane,ES,2021-10-01 18:36:46,28.6585,-17.9182,73.15,78,75,13.8,volcanic ash
407,Boa Vista,BR,2021-10-01 18:36:46,2.8197,-60.6733,93.18,43,75,11.5,broken clouds
408,Gushikawa,JP,2021-10-01 18:36:47,26.3544,127.8686,80.6,85,1,0.0,clear sky
409,Olga,RU,2021-10-01 18:36:47,43.7444,135.2892,44.47,91,0,6.11,clear sky
410,Husavik,IS,2021-10-01 18:36:47,66.0449,-17.3389,44.51,99,100,17.22,overcast clouds
411,Parfenyevo,RU,2021-10-01 18:36:48,58.484,43.4088,44.87,84,100,3.98,overcast clouds
412,Wanlaweyn,SO,2021-10-01 18:36:48,2.6185,44.8938,77.34,79,83,18.07,broken clouds
413,Poronaysk,RU,2021-10-01 18:36:49,49.2167,143.1167,46.92,71,58,2.55,broken clouds
414,Labuhan,ID,2021-10-01 18:36:49,-6.8844,112.2051,78.13,75,93,6.46,overcast clouds
415,Saint-Philippe,RE,2021-10-01 18:36:49,-21.3585,55.7679,71.19,76,45,11.59,scattered clouds
416,Tomatlan,MX,2021-10-01 18:36:50,19.9333,-105.25,86.38,69,100,4.18,overcast clouds
417,Gillette,US,2021-10-01 18:36:50,44.2911,-105.5022,65.8,35,1,5.75,clear sky
418,Pacifica,US,2021-10-01 18:36:50,37.6138,-122.4869,87.35,65,1,1.01,clear sky
419,El Molino,CO,2021-10-01 18:36:51,10.6523,-72.924,89.13,59,67,3.85,broken clouds
420,Kenai,US,2021-10-01 18:36:51,60.5544,-151.2583,43.14,68,20,3.44,few clouds
421,Tamiahua,MX,2021-10-01 18:36:51,21.2667,-97.45,85.77,75,81,12.57,broken clouds
422,Kijang,KR,2021-10-01 18:36:52,35.2442,129.2139,67.73,78,0,1.34,clear sky
423,Bandundu,CD,2021-10-01 18:36:52,-3.3167,17.3667,79.2,72,63,3.96,broken clouds
424,Oranjemund,NA,2021-10-01 18:36:52,-28.55,16.4333,57.49,93,46,13.53,light rain
425,Sao Jose Da Coroa Grande,BR,2021-10-01 18:36:53,-8.8978,-35.1478,79.14,78,18,9.98,few clouds
426,Cartagena,CO,2021-10-01 18:34:06,10.3997,-75.5144,85.62,74,75,4.61,broken clouds
427,Chapais,CA,2021-10-01 18:36:53,49.7834,-74.8492,53.38,39,5,7.09,clear sky
428,Nuevo Progreso,MX,2021-10-01 18:36:54,23.1667,-97.95,92.59,65,73,1.01,broken clouds
429,Tarakan,ID,2021-10-01 18:32:17,3.3,117.6333,76.5,94,75,2.3,broken clouds
430,Greenville,US,2021-10-01 18:36:54,35.6127,-77.3663,79.21,58,85,4.92,overcast clouds
431,Solnechnyy,RU,2021-10-01 18:36:54,50.7214,136.6319,37.85,69,1,3.65,clear sky
432,Narsaq,GL,2021-10-01 18:36:55,60.9167,-46.05,41.22,45,0,2.26,clear sky
433,Gavrilovka Vtoraya,RU,2021-10-01 18:36:55,52.877,42.7663,46.71,77,98,5.21,overcast clouds
434,Saint-Joseph,RE,2021-10-01 18:36:56,-21.3667,55.6167,70.18,76,41,10.89,scattered clouds
435,Derzhavinsk,KZ,2021-10-01 18:36:56,51.1,66.3167,38.89,84,83,8.63,broken clouds
436,Darhan,MN,2021-10-01 18:36:56,49.4867,105.9228,44.51,67,100,3.85,moderate rain
437,Novyy Urengoy,RU,2021-10-01 18:36:57,66.0833,76.6333,30.33,87,100,17.63,overcast clouds
438,Camargo,MX,2021-10-01 18:36:57,27.6667,-105.1667,79.07,40,0,5.12,clear sky
439,Aksay,RU,2021-10-01 18:36:57,47.26,39.87,48.42,37,0,11.01,clear sky
440,Srednekolymsk,RU,2021-10-01 18:33:32,67.45,153.6833,23.76,95,100,6.42,light snow
441,Praia,CV,2021-10-01 18:36:58,14.9215,-23.5087,84.74,61,20,13.8,few clouds
442,Chumikan,RU,2021-10-01 18:36:58,54.7183,135.315,38.93,78,10,19.86,clear sky
443,Tulun,RU,2021-10-01 18:36:59,54.5611,100.5792,34.61,97,100,12.73,light rain
444,Natal,BR,2021-10-01 18:36:59,-5.795,-35.2094,84.85,70,40,16.11,scattered clouds
445,Yerbogachen,RU,2021-10-01 18:36:59,61.2767,108.0108,35.37,66,100,2.68,overcast clouds
446,North Aurora,US,2021-10-01 18:35:51,41.8061,-88.3273,87.57,53,20,1.99,few clouds
447,Nara,JP,2021-10-01 18:37:00,34.6851,135.8049,71.26,63,6,6.53,clear sky
448,Kudahuvadhoo,MV,2021-10-01 18:37:00,2.6708,72.8944,82.8,71,48,10.2,scattered clouds
449,Fortuna,US,2021-10-01 18:32:49,40.5982,-124.1573,66.92,84,40,1.99,scattered clouds
450,Oxapampa,PE,2021-10-01 18:37:00,-10.5775,-75.4017,72.79,65,66,5.21,broken clouds
451,Hithadhoo,MV,2021-10-01 18:32:27,-0.6,73.0833,82.6,70,60,7.31,broken clouds
452,Sur,OM,2021-10-01 18:37:01,22.5667,59.5289,85.28,72,100,6.71,overcast clouds
453,Port Shepstone,ZA,2021-10-01 18:37:01,-30.7414,30.455,66.06,96,100,6.58,heavy intensity rain
454,Cullen,GB,2021-10-01 18:37:02,57.6904,-2.8182,51.44,72,100,15.01,overcast clouds
455,Amalapuram,IN,2021-10-01 18:37:02,16.5833,82.0167,78.94,90,29,2.77,scattered clouds
456,Hervey Bay,AU,2021-10-01 18:37:03,-25.2986,152.8535,61.03,82,0,6.46,clear sky
457,Neya,RU,2021-10-01 18:37:04,58.2972,43.8681,45.46,81,100,4.03,overcast clouds
458,Weinan,CN,2021-10-01 18:37:04,34.5036,109.5089,65.89,76,0,2.57,clear sky
459,Deputatskiy,RU,2021-10-01 18:37:04,69.3,139.9,7.68,91,13,1.72,few clouds
460,Kirakira,SB,2021-10-01 18:37:05,-10.4544,161.9205,78.44,84,99,1.5,overcast clouds
461,Fort Nelson,CA,2021-10-01 18:37:05,58.8053,-122.7002,36.99,100,40,4.61,scattered clouds
462,Ozernovskiy,RU,2021-10-01 18:37:06,51.5,156.5167,51.58,89,100,12.01,overcast clouds
463,Thinadhoo,MV,2021-10-01 18:37:06,0.5333,72.9333,82.6,69,100,8.59,overcast clouds
464,Abha,SA,2021-10-01 18:37:07,18.2164,42.5053,66.02,82,20,0.0,few clouds
465,Vondrozo,MG,2021-10-01 18:37:07,-22.8167,47.2833,62.83,86,0,4.14,clear sky
466,Amahai,ID,2021-10-01 18:37:07,-3.3333,128.9167,76.6,87,80,2.68,broken clouds
467,College,US,2021-10-01 18:37:08,64.8569,-147.8028,32.2,82,75,0.0,broken clouds
468,Libertador General San Martin,AR,2021-10-01 18:37:08,-23.8064,-64.7876,73.98,51,100,6.44,overcast clouds
469,San Cristobal,VE,2021-10-01 18:37:08,7.7669,-72.225,82.58,44,32,6.82,scattered clouds
470,Padang,ID,2021-10-01 18:37:09,-0.9492,100.3543,75.25,79,100,3.65,moderate rain
471,Safranbolu,TR,2021-10-01 18:37:09,41.2508,32.6942,49.46,86,68,1.9,broken clouds
472,Port Hardy,CA,2021-10-01 18:37:10,50.6996,-127.4199,50.18,87,90,4.61,overcast clouds
473,Khani,GE,2021-10-01 18:37:10,41.9563,42.9566,49.57,94,100,4.14,overcast clouds
474,Vila Velha,BR,2021-10-01 18:37:10,-20.3297,-40.2925,80.55,69,20,14.97,few clouds
475,The Valley,AI,2021-10-01 18:37:11,18.217,-63.0578,89.46,79,20,13.8,few clouds
476,Kimbe,PG,2021-10-01 18:37:11,-5.5502,150.1429,75.15,94,100,2.15,overcast clouds
477,Lillooet,CA,2021-10-01 18:37:12,50.6856,-121.942,59.72,52,18,3.42,few clouds
478,Marawi,PH,2021-10-01 18:37:12,7.9986,124.2928,64.65,93,98,2.35,overcast clouds
479,Longyearbyen,SJ,2021-10-01 18:37:12,78.2186,15.6401,35.44,87,75,5.75,broken clouds
480,Mbandaka,CD,2021-10-01 18:37:13,0.0487,18.2603,74.26,72,100,3.49,overcast clouds
481,Mechetinskaya,RU,2021-10-01 18:37:13,46.7713,40.456,48.0,51,6,3.13,clear sky
482,Caravelas,BR,2021-10-01 18:37:14,-17.7125,-39.2481,79.92,64,0,10.96,clear sky
483,Boali,CF,2021-10-01 18:37:14,4.8005,18.1275,82.27,91,100,1.7,overcast clouds
484,Salamiyah,SY,2021-10-01 18:37:14,35.0113,37.0532,75.2,40,0,3.71,clear sky
485,Maldonado,UY,2021-10-01 18:37:15,-34.6667,-54.9167,61.99,59,0,10.4,clear sky
486,Geraldton,AU,2021-10-01 18:37:15,-28.7667,114.6,61.21,63,75,12.66,broken clouds
487,Rawson,AR,2021-10-01 18:37:15,-43.3002,-65.1023,58.95,29,100,22.64,overcast clouds
488,Awbari,LY,2021-10-01 18:37:16,26.5921,12.7805,78.15,32,53,7.0,broken clouds
489,Save,BJ,2021-10-01 18:37:16,8.0425,2.486,77.02,88,100,2.26,light rain
490,Antofagasta,CL,2021-10-01 18:36:03,-23.65,-70.4,61.88,73,27,11.54,scattered clouds
491,Westport,US,2021-10-01 18:37:16,41.1415,-73.3579,69.76,54,75,1.01,broken clouds
492,Klaksvik,FO,2021-10-01 18:37:17,62.2266,-6.589,50.92,95,92,20.0,overcast clouds
493,Severobaykalsk,RU,2021-10-01 18:37:17,55.65,109.3167,32.13,68,83,4.85,broken clouds
494,Ugoofaaru,MV,2021-10-01 18:37:17,5.6667,73.0,81.34,77,100,12.71,moderate rain
495,Galeana,MX,2021-10-01 18:37:18,24.8333,-100.0667,68.77,74,69,7.02,broken clouds
496,Nizwa,OM,2021-10-01 18:37:18,22.9333,57.5333,86.31,47,100,4.68,overcast clouds
497,Blue Springs,US,2021-10-01 18:35:00,39.0169,-94.2816,77.09,79,100,1.99,overcast clouds
498,Drumheller,CA,2021-10-01 18:37:19,51.4617,-112.7101,64.27,29,6,10.36,clear sky
499,Miri,MY,2021-10-01 18:37:19,4.4148,114.0089,78.94,94,40,4.61,moderate rain
500,Mitchell,US,2021-10-01 18:37:19,43.7094,-98.0298,67.73,99,90,5.75,overcast clouds
501,Ginda,IN,2021-10-01 18:37:20,30.6945,78.4932,60.75,94,33,2.15,scattered clouds
502,Manggar,ID,2021-10-01 18:37:20,-2.8833,108.2667,79.27,77,100,6.06,overcast clouds
503,Beaufort,MY,2021-10-01 18:37:20,5.3473,115.7455,75.36,96,100,1.79,overcast clouds
504,Nueva Gerona,CU,2021-10-01 18:37:21,21.8833,-82.8,85.44,62,11,9.73,few clouds
505,Luderitz,NA,2021-10-01 18:37:21,-26.6481,15.1594,57.47,88,0,16.31,clear sky
506,Puurmani,EE,2021-10-01 18:37:21,58.5738,26.2878,49.01,96,35,4.5,scattered clouds
507,Borzya,RU,2021-10-01 18:37:22,50.3833,116.5167,30.51,68,6,2.98,clear sky
508,Thanh Hoa,VN,2021-10-01 18:37:22,19.8,105.7667,79.52,85,100,3.62,overcast clouds
509,Shache,CN,2021-10-01 18:37:22,38.4167,77.2406,71.76,17,0,8.25,clear sky
510,Baghdad,IQ,2021-10-01 18:34:15,33.3406,44.4009,80.51,32,0,3.44,clear sky
511,Mabai,CN,2021-10-01 18:37:23,23.0128,104.4508,61.3,99,91,0.47,overcast clouds
512,Novaya Igirma,RU,2021-10-01 18:37:23,57.1334,103.9112,30.88,78,100,1.45,overcast clouds
513,Bella Vista,US,2021-10-01 18:33:24,36.4295,-94.2316,81.12,78,90,1.01,overcast clouds
514,Nizhnyaya Omka,RU,2021-10-01 18:37:24,55.4338,74.9426,33.42,90,100,12.01,overcast clouds
515,Araceli,PH,2021-10-01 18:37:24,10.5529,119.9913,81.9,79,100,4.21,overcast clouds
516,Charters Towers,AU,2021-10-01 18:37:24,-20.1,146.2667,66.18,80,3,3.06,clear sky
517,Ternate,ID,2021-10-01 18:37:25,0.8,127.4,79.38,83,100,2.8,light rain
518,Monrovia,LR,2021-10-01 18:37:25,6.3005,-10.7969,82.17,84,42,8.72,light rain
519,Crotone,IT,2021-10-01 18:37:25,39.0851,17.1178,73.35,73,20,5.75,few clouds
520,Puerto Madryn,AR,2021-10-01 18:34:13,-42.7692,-65.0385,59.43,31,100,20.0,overcast clouds
521,Carballo,ES,2021-10-01 18:37:26,43.213,-8.691,67.08,91,94,2.93,overcast clouds
522,Vao,NC,2021-10-01 18:37:26,-22.6667,167.4833,70.95,90,100,25.61,light rain
523,Bermeo,ES,2021-10-01 18:37:26,43.4209,-2.7215,69.69,82,80,6.38,broken clouds
524,Sinnamary,GF,2021-10-01 18:37:27,5.3833,-52.95,86.11,60,39,7.72,scattered clouds
525,Kondoa,TZ,2021-10-01 18:37:27,-4.9,35.7833,68.0,54,1,10.2,clear sky
526,San Fernando,PH,2021-10-01 18:37:12,15.0286,120.6898,82.42,93,100,2.98,overcast clouds
527,Ewa Beach,US,2021-10-01 18:37:28,21.3156,-158.0072,81.01,64,1,3.0,clear sky
528,Svobodnyy,RU,2021-10-01 18:37:28,51.4,128.1333,32.86,70,3,5.12,clear sky
529,Narsingdi,BD,2021-10-01 18:37:28,23.9208,90.7181,86.02,78,50,0.49,scattered clouds
530,Ayagoz,KZ,2021-10-01 18:37:29,47.9714,80.4392,36.37,62,94,4.5,overcast clouds
531,Houma,US,2021-10-01 18:35:23,29.5958,-90.7195,87.8,75,99,10.76,overcast clouds
532,Ilulissat,GL,2021-10-01 18:37:29,69.2167,-51.1,30.22,69,75,3.44,broken clouds
533,Green River,US,2021-10-01 18:37:30,41.5286,-109.4662,64.18,39,0,3.0,clear sky
534,Avera,US,2021-10-01 18:37:30,33.194,-82.5271,87.31,42,77,3.76,broken clouds
535,Ormara,PK,2021-10-01 18:37:30,25.2088,64.6357,81.95,85,98,27.89,heavy intensity rain
536,Zuenoula,CI,2021-10-01 18:37:31,7.4292,-6.0431,75.11,88,41,3.38,scattered clouds
537,Brest,BY,2021-10-01 18:37:31,52.1,23.7,50.25,75,100,7.52,overcast clouds
538,Amazar,RU,2021-10-01 18:37:32,53.858,120.875,28.04,73,27,1.12,scattered clouds
539,Kaeo,NZ,2021-10-01 18:37:32,-35.1,173.7833,44.33,92,10,2.51,clear sky
540,Mehamn,NO,2021-10-01 18:37:32,71.0357,27.8492,48.38,66,40,18.41,scattered clouds
541,Kaltan,RU,2021-10-01 18:37:33,53.5347,87.2457,37.49,97,100,9.1,overcast clouds
542,Gao,ML,2021-10-01 18:37:33,16.6362,1.637,95.13,10,8,9.13,clear sky
543,Bonga,ET,2021-10-01 18:37:34,7.2833,36.2333,59.95,98,100,1.3,light rain
544,Nurota,UZ,2021-10-01 18:37:34,40.5614,65.6886,51.89,35,100,16.67,overcast clouds
545,Ozinki,RU,2021-10-01 18:37:34,51.1786,49.6769,50.81,56,95,4.7,overcast clouds
546,Netivot,IL,2021-10-01 18:37:35,31.4222,34.5886,76.62,73,0,8.75,clear sky
547,Aklavik,CA,2021-10-01 18:37:35,68.2191,-135.0107,34.63,96,100,3.0,overcast clouds
548,Samana,DO,2021-10-01 18:37:35,19.2056,-69.3369,93.42,59,40,6.91,scattered clouds
549,Senanga,ZM,2021-10-01 18:37:36,-16.1167,23.2667,76.14,40,52,5.01,broken clouds
550,Bria,CF,2021-10-01 18:37:36,6.5423,21.9863,70.99,94,100,2.53,moderate rain
551,Nivala,FI,2021-10-01 18:37:36,63.9167,24.9667,46.69,90,100,9.93,overcast clouds
552,Lasa,IT,2021-10-01 18:37:37,46.6166,10.7002,60.71,92,75,3.22,broken clouds
553,Flin Flon,CA,2021-10-01 18:37:37,54.7682,-101.865,66.04,39,20,6.91,smoke
554,Korla,CN,2021-10-01 18:37:38,41.7597,86.1469,69.31,26,46,14.2,scattered clouds
555,Kautokeino,NO,2021-10-01 18:37:38,69.0125,23.0412,41.14,97,100,20.2,overcast clouds
556,Gondar,ET,2021-10-01 18:37:38,12.6,37.4667,57.4,87,99,4.74,overcast clouds
557,Alice Springs,AU,2021-10-01 18:36:04,-23.7,133.8833,60.35,29,3,0.0,clear sky
558,San Giovanni Rotondo,IT,2021-10-01 18:37:39,41.7049,15.7191,64.02,60,0,5.75,clear sky
559,Naberera,TZ,2021-10-01 18:37:39,-4.2,36.9333,63.61,71,53,13.56,broken clouds
560,Ajaccio,FR,2021-10-01 18:37:39,42.0,8.9167,68.49,68,75,3.44,broken clouds
561,Puerto Leguizamo,CO,2021-10-01 18:37:40,-0.1934,-74.7819,93.63,40,51,2.71,broken clouds
562,El Rosal,CO,2021-10-01 18:37:40,4.8531,-74.26,58.95,81,100,4.63,overcast clouds
563,Chicama,PE,2021-10-01 18:37:41,-7.8447,-79.1469,63.14,59,15,10.63,few clouds
564,Salinopolis,BR,2021-10-01 18:37:41,-0.6136,-47.3561,84.31,65,37,9.75,scattered clouds
565,Labytnangi,RU,2021-10-01 18:37:41,66.6572,66.4183,32.27,80,99,4.61,overcast clouds
566,Iisalmi,FI,2021-10-01 18:37:42,63.5592,27.1907,46.42,89,100,7.2,overcast clouds
567,Moree,AU,2021-10-01 18:37:42,-29.4667,149.85,55.42,82,40,5.75,scattered clouds
568,Sosua,DO,2021-10-01 18:37:42,19.7667,-70.5167,93.18,74,20,17.27,few clouds
569,Syriam,MM,2021-10-01 18:37:43,16.7722,96.2378,78.91,94,75,3.44,light rain
570,Urumqi,CN,2021-10-01 18:34:21,43.801,87.6005,45.55,71,0,4.47,clear sky
571,Loveland,US,2021-10-01 18:36:52,40.3978,-105.075,71.89,48,1,3.0,clear sky
572,Suphan Buri,TH,2021-10-01 18:37:43,14.4742,100.1222,78.33,90,100,5.08,light rain
573,Salinas,US,2021-10-01 18:37:44,36.6777,-121.6555,90.0,29,1,14.97,clear sky
574,Holbeach,GB,2021-10-01 18:37:44,52.804,0.0144,55.56,65,14,4.0,few clouds
575,Neepawa,CA,2021-10-01 18:35:59,50.2289,-99.4664,66.6,32,100,4.43,overcast clouds
576,Palembang,ID,2021-10-01 18:37:44,-2.9167,104.7458,74.05,94,100,1.77,overcast clouds
577,Mangan,IN,2021-10-01 18:36:35,27.5167,88.5333,72.72,91,78,2.91,broken clouds
578,Kjollefjord,NO,2021-10-01 18:37:45,70.9457,27.3465,48.25,66,40,18.41,scattered clouds
579,Fasa,IR,2021-10-01 18:34:55,28.9383,53.6482,74.44,22,0,4.61,clear sky
580,Walvis Bay,NA,2021-10-01 18:37:45,-22.9575,14.5053,58.15,77,0,14.97,clear sky
581,Bayir,TR,2021-10-01 18:37:46,37.2687,28.2167,64.92,49,0,2.19,clear sky
582,Quesnel,CA,2021-10-01 18:37:46,52.9999,-122.5029,52.3,54,1,9.22,clear sky
583,Klimovo,RU,2021-10-01 18:37:47,52.3805,32.1923,44.46,76,10,6.67,clear sky
584,Leshukonskoye,RU,2021-10-01 18:37:47,64.8989,45.7622,43.11,96,100,3.62,overcast clouds
585,Yangjiang,CN,2021-10-01 18:37:47,21.85,111.9667,78.75,84,12,1.72,light rain
586,Kostomuksha,RU,2021-10-01 18:37:48,64.571,30.5767,42.78,83,100,7.11,overcast clouds
587,Swan Hill,AU,2021-10-01 18:37:48,-35.3378,143.5544,52.74,97,85,8.52,overcast clouds
588,Cosenza,IT,2021-10-01 18:37:48,39.31,16.2502,68.92,80,7,3.56,clear sky
589,Oksbol,DK,2021-10-01 18:37:49,55.6268,8.2876,57.9,91,100,22.53,light rain
590,Cooma,AU,2021-10-01 18:37:49,-36.2333,149.1333,46.17,100,90,3.44,moderate rain
591,Middletown,US,2021-10-01 18:35:11,39.5151,-84.3983,80.65,42,1,6.91,clear sky
592,Mattru,SL,2021-10-01 18:37:49,7.6244,-11.8332,76.3,94,85,3.71,light rain
593,Olden,NO,2021-10-01 18:37:50,61.8364,6.8064,59.92,92,100,8.57,overcast clouds
594,Bud,US,2021-10-01 18:37:50,39.447,-86.1758,81.18,49,4,7.67,clear sky
595,Bafra,TR,2021-10-01 18:37:50,41.5678,35.9069,61.83,71,75,7.61,broken clouds
596,Tura,IN,2021-10-01 18:37:51,25.5198,90.2201,74.75,90,26,1.45,scattered clouds
597,Puerto Carreno,CO,2021-10-01 18:37:51,6.189,-67.4859,89.15,56,16,3.78,few clouds
598,Sambava,MG,2021-10-01 18:37:51,-14.2667,50.1667,71.2,85,52,8.93,broken clouds
599,Boca Do Acre,BR,2021-10-01 18:37:52,-8.7522,-67.3978,95.92,34,100,4.27,overcast clouds
600,Oistins,BB,2021-10-01 18:37:52,13.0667,-59.5333,89.69,66,40,19.57,scattered clouds
601,Maralal,KE,2021-10-01 18:37:52,1.0968,36.698,63.05,71,100,6.62,overcast clouds
602,Morehead,US,2021-10-01 18:37:53,37.2711,-87.1764,83.98,69,63,5.61,broken clouds
603,Vardo,NO,2021-10-01 18:37:53,70.3705,31.1107,46.6,66,75,16.11,broken clouds
604,Pandamatenga,BW,2021-10-01 18:37:53,-18.5278,25.627,79.5,28,0,9.84,clear sky
605,Ikalamavony,MG,2021-10-01 18:37:54,-21.15,46.5833,66.25,68,2,4.97,clear sky
606,Pangody,RU,2021-10-01 18:37:54,65.85,74.4859,31.08,91,94,14.29,overcast clouds
607,Yuanping,CN,2021-10-01 18:37:54,38.7153,112.7575,55.0,88,6,1.5,clear sky
608,Olafsvik,IS,2021-10-01 18:37:55,64.8945,-23.7142,43.72,92,100,27.29,overcast clouds
609,Aksu,CN,2021-10-01 18:37:55,41.1231,80.2644,67.73,21,27,4.36,scattered clouds
610,Omboue,GA,2021-10-01 18:37:55,-1.5746,9.2618,76.6,84,100,6.93,overcast clouds
611,Greensburg,US,2021-10-01 18:37:56,40.3015,-79.5389,71.69,65,1,1.99,clear sky
612,Jalu,LY,2021-10-01 18:37:56,29.0331,21.5482,78.8,38,0,8.97,clear sky
613,Kenora,CA,2021-10-01 18:37:56,49.8167,-94.4337,66.18,77,75,9.22,mist
614,Shimoda,JP,2021-10-01 18:37:57,34.6667,138.95,71.4,84,34,5.93,scattered clouds
615,Zhanakorgan,KZ,2021-10-01 18:37:57,43.9098,67.2495,46.0,40,9,10.69,clear sky
616,Joutseno,FI,2021-10-01 18:37:57,61.118,28.5076,46.78,86,98,7.96,overcast clouds
617,Calama,CL,2021-10-01 18:37:58,-22.4667,-68.9333,79.29,6,0,21.85,clear sky
618,Mangai,CD,2021-10-01 18:37:58,-4.05,19.5333,75.13,73,5,1.88,clear sky
619,Antalaha,MG,2021-10-01 18:37:44,-14.9003,50.2788,69.08,87,26,6.02,light rain
620,Maniitsoq,GL,2021-10-01 18:37:58,65.4167,-52.9,39.67,57,67,3.94,broken clouds
621,Nyrob,RU,2021-10-01 18:37:59,60.733,56.7202,35.42,81,100,2.73,overcast clouds
622,San Juan,AR,2021-10-01 18:37:59,-31.5375,-68.5364,75.76,18,0,3.31,clear sky
623,Harper,LR,2021-10-01 18:37:59,4.375,-7.7169,78.22,86,31,7.96,light rain
624,Watsa,CD,2021-10-01 18:38:00,3.0372,29.5355,65.39,96,100,3.15,overcast clouds
625,Wencheng,CN,2021-10-01 18:38:00,33.0559,113.7978,73.26,83,1,0.22,light rain
626,Creston,US,2021-10-01 18:38:01,41.0586,-94.3614,72.64,86,96,9.91,overcast clouds
627,Vostok,RU,2021-10-01 18:38:01,46.4856,135.8833,36.09,83,0,3.11,clear sky
628,Wangkui,CN,2021-10-01 18:38:01,46.8333,126.5,39.76,62,0,3.04,clear sky
629,Tacuarembo,UY,2021-10-01 18:38:02,-31.7333,-55.9833,70.5,60,2,11.81,clear sky
630,Talaya,RU,2021-10-01 18:38:02,61.3833,152.75,29.5,95,100,1.86,overcast clouds
631,Kelo,TD,2021-10-01 18:38:02,9.3086,15.8066,78.12,83,96,3.69,overcast clouds
632,Lianzhou,CN,2021-10-01 18:38:03,24.7811,112.3825,75.76,90,1,0.51,clear sky
633,La Rioja,ES,2021-10-01 18:38:03,42.25,-2.5,61.48,54,12,4.43,few clouds
634,Krasnoselkup,RU,2021-10-01 18:38:04,65.7,82.4667,32.83,98,100,7.11,overcast clouds
635,Hirson,FR,2021-10-01 18:38:04,49.9226,4.0826,58.32,95,100,14.27,light rain
636,Celendin,PE,2021-10-01 18:38:05,-6.8703,-78.1517,72.12,42,43,8.25,light rain
637,Oudtshoorn,ZA,2021-10-01 18:38:05,-33.5907,22.2014,53.96,85,93,6.64,light rain
638,Kaduy,RU,2021-10-01 18:38:05,59.2,37.15,41.04,86,78,3.42,broken clouds
639,Sergeyevka,KZ,2021-10-01 18:38:06,53.88,67.4158,33.46,76,83,7.83,broken clouds
640,Moundou,TD,2021-10-01 18:38:07,8.5667,16.0833,76.5,81,84,0.29,broken clouds
641,Finschhafen,PG,2021-10-01 18:38:07,-6.6024,147.8681,78.78,81,100,4.12,moderate rain
642,Genhe,CN,2021-10-01 18:38:07,50.7833,121.5167,28.13,99,75,0.27,broken clouds
643,Barabai,ID,2021-10-01 18:38:08,-2.5833,115.3833,73.22,99,99,2.37,moderate rain
644,Gidole,ET,2021-10-01 18:38:08,5.65,37.3667,62.73,66,91,2.04,overcast clouds
645,Alyangula,AU,2021-10-01 18:38:09,-13.8483,136.4192,73.27,94,100,3.44,overcast clouds
646,Seymchan,RU,2021-10-01 18:38:09,62.8833,152.4333,31.51,98,100,2.62,snow
647,Lingao,CN,2021-10-01 18:38:09,19.9103,109.6859,77.85,80,48,5.35,light rain
648,Dalbandin,PK,2021-10-01 18:38:10,28.8947,64.4101,82.38,46,100,8.12,overcast clouds
649,Warrnambool,AU,2021-10-01 18:38:10,-38.3833,142.4833,55.81,94,97,8.3,overcast clouds
650,Mahajanga,MG,2021-10-01 18:38:10,-15.7167,46.3167,75.22,78,20,2.3,few clouds
651,Puerto Quijarro,BO,2021-10-01 18:38:11,-17.7833,-57.7667,104.97,21,100,8.01,overcast clouds
652,Simao,CN,2021-10-01 18:38:11,22.7886,100.9748,63.59,98,86,1.95,overcast clouds
653,Karaman,TR,2021-10-01 18:38:11,37.0833,33.25,53.15,40,0,7.02,clear sky
654,Yamada,JP,2021-10-01 18:38:12,39.4667,141.95,60.82,89,100,18.54,overcast clouds
655,Buala,SB,2021-10-01 18:38:12,-8.145,159.5921,79.39,80,100,1.72,light rain
656,Athabasca,CA,2021-10-01 18:38:12,54.7169,-113.2854,58.82,26,0,14.32,clear sky
657,Beisfjord,NO,2021-10-01 18:38:13,68.3751,17.5988,51.85,85,50,8.95,scattered clouds
658,Moen,NO,2021-10-01 18:38:13,69.1304,18.6123,50.72,62,75,11.5,broken clouds
659,Linxia,CN,2021-10-01 18:38:14,35.6003,103.2064,57.83,59,3,3.94,clear sky
660,Lamesa,US,2021-10-01 18:38:14,32.7376,-101.951,69.06,76,100,6.67,overcast clouds
661,Palmer,US,2021-10-01 18:38:14,42.1584,-72.3287,67.32,52,12,1.01,few clouds
662,Nelson Bay,AU,2021-10-01 18:38:15,-32.7167,152.15,57.96,94,7,6.87,clear sky
663,Ngama,TD,2021-10-01 18:38:15,11.7833,17.1667,88.77,35,66,6.64,broken clouds
664,Port Macquarie,AU,2021-10-01 18:38:15,-31.4333,152.9167,53.89,87,4,4.76,clear sky
665,Sungaipenuh,ID,2021-10-01 18:38:16,-2.0833,101.3833,63.81,83,100,2.44,light rain
666,Jacqueville,CI,2021-10-01 18:38:16,5.2052,-4.4146,80.51,86,95,6.87,overcast clouds
667,Evensk,RU,2021-10-01 18:38:16,61.95,159.2333,31.05,94,100,10.02,light snow
668,Tautira,PF,2021-10-01 18:38:17,-17.7333,-149.15,80.62,77,23,18.72,light rain
669,Beitbridge,ZW,2021-10-01 18:38:17,-22.2167,30.0,75.02,48,8,9.75,clear sky
670,Khadyzhensk,RU,2021-10-01 18:38:17,44.4256,39.5319,45.36,90,74,2.77,broken clouds
671,Shelburne,CA,2021-10-01 18:38:18,44.0787,-80.2041,67.12,55,53,7.85,broken clouds
672,Palauig,PH,2021-10-01 18:38:18,15.435,119.9045,80.42,79,100,2.93,overcast clouds
673,Vigrestad,NO,2021-10-01 18:38:18,58.5667,5.7,57.0,75,78,17.13,broken clouds
674,Miraflores,MX,2021-10-01 18:38:19,19.2167,-98.8083,74.03,62,91,4.85,overcast clouds
675,Gulu,UG,2021-10-01 18:38:19,2.7746,32.299,63.48,97,100,4.45,overcast clouds
676,Buraydah,SA,2021-10-01 18:38:19,26.326,43.975,84.65,14,8,4.81,clear sky
677,Beloha,MG,2021-10-01 18:38:20,-25.1667,45.05,73.65,62,0,4.43,clear sky
678,Pringsewu,ID,2021-10-01 18:38:20,-5.3582,104.9744,74.46,95,100,3.56,overcast clouds
679,Belle Fourche,US,2021-10-01 18:38:21,44.6714,-103.8522,72.34,29,2,4.9,clear sky
680,Mitsamiouli,KM,2021-10-01 18:38:21,-11.3847,43.2844,75.49,88,40,6.91,scattered clouds
681,Ostrovnoy,RU,2021-10-01 18:38:07,68.0531,39.5131,44.2,86,100,5.97,overcast clouds
682,Karatuzskoye,RU,2021-10-01 18:38:21,53.6072,92.8667,37.02,82,93,11.56,overcast clouds
683,Somanda,TZ,2021-10-01 18:38:22,-3.3667,33.95,80.19,29,54,11.3,broken clouds
684,Nouna,BF,2021-10-01 18:38:22,12.7333,-3.8667,82.89,56,19,2.37,light rain
685,Laredo,US,2021-10-01 18:37:28,27.5064,-99.5075,87.8,70,1,10.36,clear sky
686,Taman,RU,2021-10-01 18:38:23,45.2117,36.7161,50.34,58,11,30.18,few clouds
687,Alihe,CN,2021-10-01 18:38:23,50.5667,123.7167,32.29,93,84,2.21,broken clouds
688,Winnemucca,US,2021-10-01 18:38:23,40.973,-117.7357,65.1,15,1,9.22,clear sky
689,Ketchikan,US,2021-10-01 18:38:23,55.3422,-131.6461,50.47,93,90,21.85,mist
